,City,Cloudiness,Country,Date,Humidity,Lat,Lng,Max Temp,Wind Speed
0,Hithadhoo,0,MV,1554579503,100,-0.6,73.08,84.13,6.53
1,Victoria,75,BN,1554577200,83,5.28,115.24,82.4,3.36
2,Bethel,75,US,1554577200,73,60.79,-161.76,28.4,16.11
3,Kaeo,0,NZ,1554579485,95,-35.1,173.78,53.01,6.2
4,College,75,US,1554579220,55,64.86,-147.8,35.6,8.05
5,Rikitea,64,PF,1554579504,100,-23.12,-134.97,78.19,13.58
6,Albany,40,US,1554579274,50,42.65,-73.75,57.99,10.29
7,Rupert,90,US,1554576780,40,42.62,-113.68,53.6,14.99
8,Hobart,0,AU,1554579495,71,-42.88,147.33,50.0,8.05
9,Bredasdorp,12,ZA,1554579054,82,-34.53,20.04,64.4,6.93
10,Bomi,24,SL,1554579505,80,7.25,-11.53,81.07,4.74
11,Cape Town,0,ZA,1554579489,82,-33.93,18.42,66.99,13.87
12,Hambantota,40,LK,1554574200,100,6.12,81.12,78.8,6.2
13,Cabo San Lucas,5,MX,1554579332,60,22.89,-109.91,82.0,9.17
14,Ushuaia,90,AR,1554577200,69,-54.81,-68.31,39.2,14.99
15,Avarua,64,CK,1554577200,69,-21.21,-159.78,78.8,6.93
16,Busselton,44,AU,1554579411,56,-33.64,115.35,50.0,10.45
17,Batagay,32,RU,1554579505,71,67.65,134.64,12.49,2.84
18,Umm Kaddadah,0,SD,1554579506,15,13.6,26.69,70.27,8.55
19,Nome,90,US,1554579214,74,30.04,-94.42,82.4,9.17
20,Leningradskiy,44,RU,1554579506,91,69.38,178.42,5.74,14.25
21,Coquimbo,40,CL,1554577200,82,-29.95,-71.34,62.6,16.11
22,Narsaq,75,GL,1554576600,26,60.91,-46.05,44.6,6.93
23,Merauke,48,ID,1554579506,100,-8.49,140.4,76.66,3.06
24,Constitucion,5,MX,1554579015,10,23.99,-104.67,72.0,14.99
25,Tuktoyaktuk,20,CA,1554577200,70,69.44,-133.03,-0.41,12.75
26,Canakkale,75,TR,1554576600,93,40.15,26.41,52.0,11.41
27,Yellowknife,90,CA,1554579291,52,62.45,-114.38,19.4,12.75
28,Batsfjord,24,NO,1554579507,100,70.63,29.72,35.26,17.83
29,Mataura,0,NZ,1554579507,75,-46.19,168.86,34.99,2.95
30,Waitati,0,NZ,1554579278,62,-45.75,170.57,50.0,11.99
31,Port Alfred,12,ZA,1554579401,88,-33.59,26.89,62.01,1.99
32,Haines Junction,0,CA,1554579508,77,60.75,-137.51,30.76,2.62
33,Barrow,20,AR,1554579508,36,-38.31,-60.23,73.69,12.46
34,Chuy,76,UY,1554579314,80,-33.69,-53.46,66.94,7.2
35,Kapaa,1,US,1554579198,69,22.08,-159.32,77.0,6.93
36,Vila Franca do Campo,75,PT,1554579244,93,37.72,-25.43,59.0,19.46
37,Svetlogorsk,0,RU,1554577200,71,53.14,59.15,32.0,4.47
38,Luderitz,36,NA,1554579508,88,-26.65,15.16,58.3,9.44
39,Fria,8,GN,1554579508,61,10.36,-13.58,81.43,11.12
40,Georgetown,40,GY,1554577200,74,6.8,-58.16,84.2,13.87
41,Porto Walter,92,BR,1554579509,96,-8.27,-72.74,73.51,3.18
42,Carlos Chagas,24,BR,1554579510,48,-17.7,-40.76,86.29,8.66
43,Kodiak,1,US,1554579218,16,39.95,-94.76,77.0,18.34
44,Progreso,40,UY,1554578162,52,-34.68,-56.22,69.8,4.7
45,Lebu,5,ET,1554577200,55,8.96,38.73,66.2,11.41
46,Shostka,0,UA,1554579510,66,51.86,33.47,37.33,9.22
47,Saint George,75,GR,1554576600,66,39.45,22.34,55.4,5.82
48,Serebryanyy Bor,56,RU,1554579511,78,56.8,124.8,21.4,5.75
49,Upernavik,0,GL,1554579511,77,72.79,-56.15,32.02,14.92
50,Windhoek,0,NA,1554577200,23,-22.57,17.08,75.2,2.24
51,Qaanaaq,56,GL,1554579511,88,77.48,-69.36,12.49,10.0
52,Coahuayana,20,MX,1554579511,24,18.62,-100.35,87.46,3.18
53,Dikson,76,RU,1554579511,98,73.51,80.55,14.74,5.41
54,Port Hardy,75,CA,1554577200,66,50.7,-127.42,51.8,27.51
55,Ahipara,0,NZ,1554579512,100,-35.17,173.16,57.94,5.97
56,Road Town,40,VG,1554579503,65,18.42,-64.62,82.4,13.87
57,Castro,75,CL,1554577200,87,-42.48,-73.76,59.0,17.22
58,Taoudenni,12,ML,1554579515,25,22.68,-3.98,67.93,9.44
59,Yaan,56,NG,1554579516,88,7.38,8.57,77.83,6.08
60,Atuona,8,PF,1554579516,98,-9.8,-139.03,82.96,14.81
61,Thompson,20,CA,1554577200,25,55.74,-97.86,28.4,2.24
62,Bluff,0,AU,1554579516,88,-23.58,149.07,64.06,7.65
63,Belvedere Marittimo,0,IT,1554579099,99,39.62,15.86,57.99,6.42
64,Palembang,88,ID,1554579516,98,-2.99,104.76,73.6,0.94
65,Katsuura,20,JP,1554579303,71,33.93,134.5,51.8,4.7
66,Nemuro,0,JP,1554579517,95,43.32,145.57,33.91,13.13
67,Jamestown,0,AU,1554579320,81,-33.21,138.6,41.38,2.62
68,Leh,80,IN,1554579517,90,34.16,77.58,12.4,1.61
69,Arraial do Cabo,0,BR,1554577200,66,-22.97,-42.02,87.8,9.17
70,Camacha,40,PT,1554577200,93,33.08,-16.33,64.4,14.99
71,Fortuna,40,ES,1554579338,71,38.18,-1.13,59.0,4.7
72,Baruun-Urt,0,MN,1554579518,44,46.68,113.28,11.95,5.97
73,Saint Anthony,75,US,1554579346,61,43.97,-111.68,50.0,20.8
74,Iracoubo,92,GF,1554579518,81,5.48,-53.21,78.1,5.75
75,Vaini,0,IN,1554579518,86,15.34,74.49,67.57,1.5
76,Shieli,0,KZ,1554579518,83,44.18,66.74,44.8,9.22
77,Gombe,36,NG,1554579519,58,10.28,11.17,84.76,4.63
78,Provideniya,48,RU,1554579519,100,64.42,-173.23,14.56,5.75
79,Hermanus,0,ZA,1554579072,82,-34.42,19.24,66.0,5.99
80,Nikolskoye,0,RU,1554579336,55,59.7,30.79,39.99,6.71
81,Pevek,0,RU,1554579519,87,69.7,170.27,6.55,6.98
82,Simbahan,100,PH,1554579520,98,6.3,120.58,82.15,10.22
83,Lagoa,40,PT,1554579133,67,37.14,-8.45,57.2,20.8
84,Pisco,0,PE,1554577200,30,-13.71,-76.2,71.6,9.17
85,Carnarvon,0,ZA,1554579520,68,-30.97,22.13,48.31,3.96
86,Nanortalik,24,GL,1554579520,93,60.14,-45.24,32.83,20.07
87,New Norfolk,0,AU,1554579495,71,-42.78,147.06,50.0,8.05
88,Kaitangata,0,NZ,1554579520,73,-46.28,169.85,38.77,5.53
89,Hilo,1,US,1554579434,57,19.71,-155.08,78.8,3.36
90,Airai,0,TL,1554579521,86,-8.93,125.41,65.32,1.5
91,Tezu,0,IN,1554579521,61,27.93,96.16,59.38,1.95
92,Khatanga,68,RU,1554579521,87,71.98,102.47,19.51,6.76
93,Morros,40,BR,1554577200,83,-2.87,-44.04,80.6,11.41
94,Bandarbeyla,0,SO,1554579263,100,9.49,50.81,81.07,3.18
95,Sao Filipe,0,CV,1554579521,94,14.9,-24.5,71.44,18.05
96,Kamenka,92,RU,1554577510,85,53.19,44.05,37.99,4.85
97,Santa Isabel do Rio Negro,0,BR,1554579522,45,-0.41,-65.02,94.21,7.65
98,Saskylakh,56,RU,1554579522,80,71.97,114.09,17.89,18.28
99,Ugoofaaru,80,MV,1554579522,100,5.67,73.0,84.76,5.19
100,Galveston,1,US,1554579484,45,40.58,-86.19,68.0,5.82
101,Ilulissat,75,GL,1554576600,44,69.22,-51.1,39.2,21.92
102,Hun,64,BE,1554579467,62,50.34,4.87,52.0,2.24
103,Pochutla,20,MX,1554579087,52,15.74,-96.47,91.99,11.41
104,Misratah,20,LY,1554579523,95,32.38,15.09,58.21,6.2
105,The Valley,40,AI,1554579107,57,18.22,-63.06,84.2,18.34
106,Nishihara,1,JP,1554579224,75,35.74,139.53,57.0,1.95
107,Sept-Iles,75,CA,1554579209,74,50.2,-66.38,37.99,8.05
108,Vredefort,80,ZA,1554579523,97,-27.0,27.37,54.61,8.21
109,Sitka,76,US,1554579048,59,37.17,-99.65,66.99,10.0
110,Puerto Ayora,20,EC,1554579072,66,-0.74,-90.35,87.8,18.34
111,Hamilton,75,BM,1554579032,83,32.3,-64.78,71.01,16.11
112,East London,0,ZA,1554573600,88,-33.02,27.91,62.6,6.93
113,Chicama,0,PE,1554577200,83,-7.84,-79.15,73.4,10.29
114,Sinnamary,92,GF,1554579524,100,5.38,-52.96,78.37,10.22
115,Okhotsk,48,RU,1554579313,82,59.36,143.24,30.04,5.75
116,Mindyak,0,RU,1554577200,65,54.02,58.79,32.0,4.47
117,Boa Vista,75,BR,1554577200,32,2.82,-60.67,95.0,10.29
118,Saint-Philippe,75,CA,1554579517,70,45.36,-73.48,46.0,14.99
119,Poum,75,MK,1554577200,62,41.28,20.71,51.8,4.7
120,Bilma,0,NE,1554579526,17,18.69,12.92,79.9,7.2
121,Matamoros,1,US,1554579506,52,25.87,-97.51,89.6,20.8
122,Esperance,75,TT,1554579082,66,10.24,-61.45,86.0,21.92
123,Melfort,90,CA,1554577200,74,52.87,-104.61,37.4,10.29
124,Bolobo,36,CD,1554579527,90,-2.17,16.23,78.19,2.17
125,Omboue,20,GA,1554579527,100,-1.57,9.26,83.23,5.41
126,Vardo,20,US,1554579519,48,39.62,-77.74,68.0,8.05
127,Zwedru,64,LR,1554579527,83,6.07,-8.13,77.56,5.19
128,Warrington,0,GB,1554579430,53,53.39,-2.59,52.0,9.17
129,San Luis,0,AR,1554579528,21,-33.3,-66.34,82.24,5.3
130,Mount Isa,0,AU,1554577200,53,-20.73,139.49,73.4,8.05
131,Geraldton,75,CA,1554577200,55,49.72,-86.95,35.6,3.36
132,Souillac,0,FR,1554579452,93,45.6,-0.6,48.0,10.29
133,Paamiut,24,GL,1554579529,88,61.99,-49.67,34.36,39.08
134,Port Macquarie,40,AU,1554579305,100,-31.43,152.91,60.8,3.36
135,Vao,0,EE,1554579529,76,59.1,26.19,33.82,3.62
136,Mackay,90,CA,1554578700,74,53.65,-115.58,39.2,10.29
137,Ancud,75,CL,1554577200,87,-41.87,-73.83,59.0,17.22
138,Lompoc,1,US,1554579489,60,34.64,-120.46,70.0,13.87
139,Viedma,0,AR,1554579529,29,-40.81,-62.99,75.85,4.97
140,Tasiilaq,92,GL,1554576600,92,65.61,-37.64,32.0,33.33
141,Anjozorobe,75,MG,1554577200,82,-18.4,47.88,68.0,10.29
142,Westport,75,IE,1554579489,75,53.8,-9.52,50.0,5.82
143,Nguru,0,NG,1554579271,41,12.88,10.45,81.16,4.07
144,Pangkalanbuun,20,ID,1554579292,92,-2.68,111.62,73.6,2.62
145,Cao Bang,64,VN,1554579530,94,22.67,106.25,59.38,2.39
146,Trapani,75,IT,1554579511,76,38.02,12.54,62.01,3.36
147,Iguape,92,BR,1554579530,100,-24.7,-47.56,74.77,7.2
148,Dingle,20,PH,1554579531,95,11.0,122.67,75.4,8.1
149,Huarmey,20,PE,1554579324,58,-10.07,-78.15,76.66,3.85
150,Pangnirtung,90,CA,1554577200,62,66.15,-65.72,21.2,8.05
151,Terney,24,RU,1554579531,88,45.05,136.61,32.83,6.87
152,Namatanai,88,PG,1554579531,100,-3.66,152.44,81.07,4.18
153,Yumen,76,CN,1554579531,40,40.29,97.04,47.77,5.3
154,Honiara,20,SB,1554579532,99,-9.43,159.96,77.47,1.39
155,Hualmay,20,PE,1554579532,70,-11.1,-77.61,75.31,5.64
156,Batangafo,100,CF,1554579532,34,7.3,18.29,88.63,4.52
157,Exeter,75,GB,1554579492,66,50.73,-3.53,51.8,14.99
158,Wattegama,24,LK,1554579532,94,7.35,80.68,70.0,2.73
159,Codrington,75,AU,1554579372,93,-28.95,153.24,64.0,6.93
160,El Cope,40,PA,1554579000,62,8.69,-82.32,87.8,12.75
161,Namibe,0,AO,1554579533,100,-15.19,12.15,78.28,9.66
162,Nizhniy Odes,0,RU,1554579533,79,63.64,54.86,22.3,5.64
163,Culiacan,5,MX,1554579437,42,24.8,-107.39,87.01,6.93
164,Poso,80,ID,1554579533,100,-1.4,120.75,77.83,3.96
165,Butaritari,88,KI,1554579533,100,3.07,172.79,79.54,8.1
166,Freetown,75,BS,1554577200,69,26.61,-78.36,82.4,8.05
167,Wukari,20,NG,1554579534,57,7.87,9.78,86.47,13.24
168,Coihaique,20,CL,1554577320,55,-45.58,-72.07,62.6,10.29
169,Barahona,75,DO,1554577200,55,18.21,-71.1,87.8,20.8
170,Along,8,IN,1554579534,73,28.17,94.8,58.75,1.95
171,Ambulu,92,ID,1554579534,100,-8.35,113.61,77.29,0.83
172,Pangody,92,RU,1554579534,91,65.85,74.49,29.23,23.53
173,Bathsheba,40,BB,1554577200,61,13.22,-59.52,82.4,24.16
174,Berezovyy,88,RU,1554579535,84,51.67,135.7,26.8,4.74
175,Kiunga,92,PG,1554579535,98,-6.12,141.3,71.98,2.39
176,Ostrovnoy,64,RU,1554579535,85,68.05,39.51,25.36,10.45
177,San Patricio,64,PY,1554579535,76,-26.98,-56.83,70.36,5.75
178,Macomer,75,IT,1554578400,93,40.26,8.77,50.0,8.05
179,Mar del Plata,0,AR,1554579535,31,-46.43,-67.52,70.63,4.97
180,Urusha,68,RU,1554579536,55,54.05,122.9,30.94,7.76
181,Karratha,0,AU,1554579536,67,-20.74,116.85,65.59,2.95
182,Santa Fe,0,AR,1554579144,32,-31.62,-60.7,75.99,1.99
183,Bambous Virieux,75,MU,1554579240,74,-20.34,57.76,80.6,11.41
184,Krapina,0,HR,1554579347,81,46.16,15.87,53.01,4.7
185,Udachnyy,20,RU,1554579537,74,66.42,112.4,18.88,6.98
186,Yulara,8,AU,1554577200,40,-25.24,130.99,69.8,6.93
187,Punta Arenas,40,CL,1554578550,57,-53.16,-70.91,48.2,53.02
188,Torbay,90,CA,1554579444,32,47.66,-52.73,39.2,19.46
189,Bol,0,TD,1554579537,19,13.47,14.72,80.26,3.51
190,Laguna,5,MX,1554576120,26,27.52,-110.01,80.6,6.93
191,Kangaatsiaq,44,GL,1554579537,79,68.31,-53.46,35.08,19.84
192,Sandovo,0,RU,1554579537,82,58.46,36.41,26.53,3.96
193,Skjervoy,68,NO,1554579538,100,70.03,20.97,33.64,10.78
194,Mandvi,0,IN,1554579538,91,21.25,73.3,75.04,10.67
195,Comodoro Rivadavia,20,AR,1554577200,46,-45.87,-67.48,69.8,8.05
196,Hami,92,CN,1554579297,50,42.84,93.51,53.98,2.62
197,Meulaboh,92,ID,1554579538,100,4.14,96.13,76.93,5.64
198,Luwuk,80,ID,1554579538,100,-0.95,122.79,78.64,2.73
199,Acapulco,20,MX,1554576480,74,16.86,-99.88,82.4,16.11
200,Caravelas,20,BR,1554579539,97,-17.73,-39.27,82.78,14.36
201,Ambilobe,8,MG,1554579539,81,-13.19,49.05,73.33,5.97
202,Faanui,76,PF,1554579539,98,-16.48,-151.75,85.21,15.7
203,Camudmud,75,PH,1554577200,94,7.18,125.7,78.8,4.7
204,Praya,40,ID,1554577200,100,-8.71,116.27,75.2,5.08
205,Klaksvik,48,FO,1554576600,97,62.23,-6.59,41.0,9.17
206,Havre-Saint-Pierre,75,CA,1554577200,93,50.23,-63.6,32.0,13.87
207,Puerto del Rosario,20,ES,1554577200,55,28.5,-13.86,66.2,18.34
208,Jaciara,92,BR,1554579540,81,-15.95,-54.98,72.43,7.99
209,Sao Gabriel da Cachoeira,40,BR,1554577200,63,-0.13,-67.09,91.4,4.7
210,Kasongo-Lunda,36,CD,1554579540,90,-6.48,16.82,72.79,1.28
211,Port Elizabeth,40,US,1554579410,48,39.31,-74.98,68.0,5.82
212,Norman Wells,75,CA,1554577200,67,65.28,-126.83,23.0,18.34
213,Ampanihy,0,MG,1554579541,85,-24.69,44.75,70.18,5.19
214,Salalah,75,OM,1554576600,78,17.01,54.1,80.6,4.7
215,Naze,75,NG,1554573600,83,5.43,7.07,78.8,2.24
216,Fairbanks,75,US,1554579427,55,64.84,-147.72,35.6,8.05
217,Ust-Kuyga,44,RU,1554579541,94,70.0,135.55,9.7,2.95
218,Tallahassee,75,US,1554579358,69,30.44,-84.28,84.0,4.7
219,Kontagora,12,NG,1554579542,58,10.4,5.47,85.48,0.16
220,Chokurdakh,88,RU,1554579542,88,70.62,147.9,14.74,6.42
221,Kanigiri,20,IN,1554579542,94,15.41,79.51,73.96,6.42
222,Asahi,40,JP,1554579462,87,35.74,140.65,53.01,12.75
223,Ravar,0,IR,1554579542,42,31.27,56.81,54.97,2.39
224,San Quintin,8,PH,1554579314,83,17.54,120.52,68.56,3.62
225,Manggar,0,ID,1554579543,100,-2.88,108.27,74.5,2.95
226,Severo-Kurilsk,92,RU,1554579277,95,50.68,156.12,32.47,28.9
227,Alice Springs,0,AU,1554577200,48,-23.7,133.88,62.6,2.24
228,Copiapo,20,CL,1554577200,68,-27.37,-70.33,68.0,10.29
229,Vung Tau,76,VN,1554579543,99,10.35,107.08,81.7,13.24
230,Pontianak,20,ID,1554579543,99,-0.02,109.34,74.95,2.17
231,Perpignan,0,FR,1554579434,93,42.7,2.88,53.01,3.36
232,Egvekinot,48,RU,1554579543,80,66.32,-179.17,9.16,11.68
233,Vysokogornyy,68,RU,1554579544,82,50.1,139.13,23.56,2.95
234,Beringovskiy,76,RU,1554579544,100,63.05,179.32,15.19,18.72
235,Husavik,88,CA,1554579015,58,50.56,-96.99,43.0,11.01
236,Guaranda,68,EC,1554579544,94,-1.59,-79.0,69.91,2.51
237,Okha,44,RU,1554579544,87,53.59,142.95,21.04,10.0
238,Tilichiki,20,RU,1554579544,84,60.47,166.1,24.64,3.96
239,Kruisfontein,0,ZA,1554579544,84,-34.0,24.73,63.43,12.24
240,Kahului,20,US,1554579268,65,20.89,-156.47,78.01,4.7
241,Ambon,64,FR,1554579495,100,47.55,-2.56,48.0,8.05
242,Alyangula,90,AU,1554578220,94,-13.85,136.42,77.0,10.29
243,Gainesville,75,US,1554579187,48,29.65,-82.33,88.0,8.05
244,Nicoya,20,CR,1554579097,39,10.15,-85.45,95.0,13.87
245,Krasnopavlivka,0,UA,1554579545,60,49.15,36.33,41.2,9.66
246,Necochea,0,AR,1554579545,48,-38.55,-58.74,71.62,10.78
247,Verkhnevilyuysk,0,RU,1554579545,78,63.45,120.31,15.91,4.41
248,Manoel Urbano,80,BR,1554579546,75,-8.84,-69.26,77.74,5.86
249,Port Hedland,0,AU,1554577200,73,-20.31,118.58,75.2,8.05
250,Ha Giang,88,VN,1554579546,97,22.83,104.99,65.86,0.04
251,Anadyr,0,RU,1554578550,84,64.73,177.51,-2.01,4.47
252,Valparaiso,75,US,1554579364,59,41.47,-87.06,68.0,3.36
253,Harboore,0,DK,1554579305,66,56.62,8.18,55.4,3.36
254,Sibu,75,MY,1554577200,94,2.29,111.83,77.0,2.24
255,San Miguel,0,AR,1554579498,37,-34.54,-58.72,78.01,2.24
256,Aswan,0,EG,1554573600,17,24.09,32.9,86.0,5.82
257,Escarcega,32,MX,1554579549,33,18.61,-90.75,96.91,6.31
258,Marabba,0,SD,1554579549,36,12.35,32.18,71.8,3.29
259,Whitianga,0,NZ,1554579310,97,-36.83,175.7,53.01,1.99
260,Jining,0,CN,1554579549,76,35.41,116.58,50.38,2.95
261,Katastarion,75,GR,1554579497,82,37.83,20.77,60.8,8.1
262,Feldkirchen,0,DE,1554579548,57,48.48,11.91,55.4,6.93
263,Flagstaff,90,US,1554579366,46,35.2,-111.65,70.0,8.05
264,Voronezh,68,RU,1554577200,91,51.65,39.21,32.0,5.3
265,Bonthe,80,SL,1554579550,82,7.53,-12.5,82.51,4.52
266,Mount Gambier,40,AU,1554577200,93,-37.83,140.78,46.4,10.29
267,Puerto Colombia,20,CO,1554579130,58,10.99,-74.96,87.8,16.11
268,Havoysund,64,NO,1554576600,97,71.0,24.66,32.0,18.34
269,Jiwani,0,PK,1554579551,65,25.05,61.74,78.73,9.33
270,Chumikan,92,RU,1554579551,88,54.72,135.31,28.24,3.51
271,Sabha,64,LY,1554579551,47,27.03,14.43,67.84,1.95
272,Nouadhibou,8,MR,1554577200,64,20.93,-17.03,69.8,21.92
273,Batagay-Alyta,76,RU,1554579551,76,67.8,130.41,16.18,4.18
274,Broome,90,GB,1554579538,93,52.47,1.45,48.0,5.82
275,Cidreira,92,BR,1554579552,94,-30.17,-50.22,69.73,8.1
276,Muros,40,ES,1554579536,93,42.77,-9.06,53.01,3.36
277,Kayes,0,ML,1554579552,30,14.44,-11.44,88.18,7.99
278,Sao Joao da Barra,20,BR,1554577200,59,-21.64,-41.05,89.6,14.99
279,Ribeira Grande,75,PT,1554577200,82,38.52,-28.7,62.6,24.16
280,Pandan,20,PH,1554579553,99,11.72,122.09,80.62,16.49
281,Cherskiy,0,RU,1554579553,73,68.75,161.3,8.26,2.28
282,Bonavista,88,CA,1554579003,43,48.65,-53.11,37.99,14.0
283,Strezhevoy,0,RU,1554577200,73,60.73,77.6,23.0,4.47
284,Barranca,68,PE,1554579554,93,-10.75,-77.76,69.01,9.66
285,Kindu,92,CD,1554579554,100,-2.95,25.92,70.36,3.18
286,Paradise,75,US,1554579349,24,36.12,-115.17,75.0,6.93
287,Rocha,80,UY,1554579554,63,-34.48,-54.34,66.85,3.96
288,Tiksi,0,RU,1554579554,78,71.64,128.87,8.71,2.84
289,Ixtapa,5,MX,1554579318,51,20.71,-105.21,84.2,10.29
290,Hasaki,40,JP,1554579462,87,35.73,140.83,52.0,12.75
291,Ossora,8,RU,1554579555,82,59.24,163.07,17.35,1.61
292,Faya,0,SA,1554577200,63,18.39,42.45,64.4,4.7
293,Umm Lajj,64,SA,1554579555,87,25.02,37.27,68.47,3.85
294,Richards Bay,24,ZA,1554579555,97,-28.77,32.06,65.5,9.22
295,Praia da Vitoria,20,PT,1554579014,68,38.73,-27.07,66.2,29.8
296,Tripoli,20,GR,1554579338,87,37.51,22.37,59.0,1.95
297,Phalodi,0,IN,1554579555,38,27.13,72.36,75.4,3.4
298,Verkh-Usugli,32,RU,1554579556,73,52.7,115.17,19.33,4.18
299,Aksu,0,KZ,1554577200,79,52.04,76.93,32.0,8.95
300,Tual,68,ID,1554579556,99,-5.67,132.75,83.59,5.08
301,Beidao,0,CN,1554579556,47,34.57,105.89,42.19,2.17
302,Clyde River,68,CA,1554577200,84,70.47,-68.59,5.0,35.57
303,Anloga,20,GH,1554577200,83,5.79,0.9,84.2,13.87
304,Samfya,44,ZM,1554579557,84,-11.37,29.56,70.27,6.87
305,Ilula,5,TZ,1554573600,73,-7.68,36.04,69.8,2.95
306,High Level,90,CA,1554577200,68,58.52,-117.13,32.0,9.17
307,Saint-Augustin,0,FR,1554579387,87,44.83,-0.61,50.0,8.05
308,Atasu,0,KZ,1554579557,88,48.68,71.64,30.13,7.99
309,Kununurra,92,AU,1554577200,88,-15.77,128.74,77.0,2.28
310,Grindavik,75,IS,1554579416,65,63.84,-22.43,43.0,12.75
311,Plainview,1,US,1554579217,40,34.18,-101.71,75.99,12.75
312,Chateaubelair,75,VC,1554579065,62,13.28,-61.25,84.2,20.8
313,Mastung,80,PK,1554579558,43,29.8,66.85,55.96,2.62
314,Zhigansk,0,RU,1554579558,73,66.77,123.37,14.11,4.63
315,Oshikango,68,NA,1554577200,26,-17.39,15.89,82.4,1.12
316,Avera,90,US,1554579546,73,33.19,-82.53,73.99,3.36
317,Wainwright,80,CA,1554579527,66,52.84,-110.86,52.18,13.02
318,Talnakh,88,RU,1554579559,90,69.49,88.39,18.43,11.34
319,La Rioja,0,AR,1554579559,65,-29.41,-66.86,73.33,3.74
320,Tuatapere,0,NZ,1554579559,100,-46.13,167.69,47.5,4.74
321,Rantauprapat,24,ID,1554579559,89,2.1,99.83,73.15,2.73
322,Pallasovka,92,RU,1554579559,97,50.04,46.89,47.77,3.96
323,Saldanha,56,PT,1554579559,96,41.42,-6.55,39.85,7.2
324,Sabang,44,PH,1554579560,98,13.72,123.58,75.04,3.85
325,Port-Gentil,20,GA,1554577200,83,-0.72,8.78,82.4,8.05
326,Mokrousovo,0,RU,1554579560,65,55.81,66.77,21.67,2.95
327,Jacksonville,40,US,1554579325,48,30.33,-81.66,88.0,8.05
328,Gat,0,SN,1554577200,22,14.69,-16.54,96.8,9.17
329,Salem,40,US,1554579302,76,44.94,-123.03,57.0,12.75
330,Severnoye,24,RU,1554579561,93,54.09,52.54,33.64,8.77
331,Longyearbyen,40,NO,1554576600,62,78.22,15.63,19.4,19.46
332,Thinadhoo,44,MV,1554579481,100,0.53,72.93,83.68,1.61
333,Port Blair,0,IN,1554579562,100,11.67,92.75,83.59,3.18
334,Ahuimanu,1,US,1554579156,69,21.44,-157.84,79.0,3.36
335,Fort Nelson,90,CA,1554578760,74,58.81,-122.69,28.4,2.24
336,Iskateley,76,RU,1554579562,89,67.68,53.15,25.9,16.15
337,Biak,80,ID,1554579562,100,-0.91,122.88,78.64,2.73
338,Sterling,40,US,1554579546,59,39.0,-77.4,70.0,5.82
339,Kyzyl,88,RU,1554579562,90,51.72,94.43,31.39,3.4
340,Labuhan,88,ID,1554579563,97,-2.54,115.51,72.16,1.16
341,Kasane,40,BW,1554573600,77,-17.8,25.16,69.8,4.7
342,Maniwaki,8,CA,1554579563,62,46.38,-75.98,46.96,7.65
343,Marawi,64,PH,1554579148,91,8.0,124.29,75.99,4.0
344,Kralendijk,20,BQ,1554576900,58,12.15,-68.27,86.0,23.04
345,Kishi,32,NG,1554579563,55,9.08,3.85,84.4,12.46
346,Brigantine,1,US,1554579558,59,39.41,-74.36,66.2,4.7
347,Tomatlan,0,MX,1554579564,52,19.93,-105.25,84.22,4.41
348,Missoula,75,US,1554579459,45,46.87,-114.0,51.01,4.7
349,Lhokseumawe,8,ID,1554579431,100,5.18,97.15,83.5,3.29
350,Port Lincoln,88,AU,1554579564,100,-34.72,135.86,58.66,12.12
351,Nieuw Amsterdam,20,SR,1554579313,52,5.88,-55.08,89.6,16.11
352,Shingu,44,JP,1554579565,94,33.72,135.99,61.18,11.34
353,Kobryn,80,BY,1554579565,49,52.21,24.36,50.56,13.69
354,La Asuncion,88,EC,1554579565,100,-1.64,-78.74,52.18,1.83
355,Mabaruma,88,GY,1554579565,77,8.2,-59.78,80.71,11.12
356,Basco,40,US,1554579449,56,40.33,-91.2,70.0,10.29
357,Celestun,0,MX,1554579565,91,20.87,-90.4,81.34,10.0
358,Presidente Medici,76,BR,1554579530,83,-11.18,-61.9,73.15,3.51
359,Los Alamos,75,US,1554579206,26,35.88,-106.3,66.99,5.82
360,Caldwell,40,US,1554579458,81,43.67,-116.69,55.0,13.87
361,Touros,75,BR,1554577200,83,-5.2,-35.46,80.6,9.17
362,Nyurba,0,RU,1554579566,80,63.29,118.35,15.19,2.51
363,Zhanaozen,92,KZ,1554579566,68,43.35,52.85,54.88,20.07
364,Garissa,0,KE,1554579566,61,-0.46,39.64,81.52,10.33
365,Plettenberg Bay,0,ZA,1554579320,96,-34.05,23.37,63.43,13.24
366,Taltal,0,CL,1554579566,56,-25.41,-70.49,69.19,2.17
367,Kholm,8,RU,1554579567,84,57.15,31.18,33.55,4.07
368,Inta,0,RU,1554579567,78,66.04,60.13,27.07,8.21
369,Hofn,12,IS,1554579567,100,64.25,-15.21,35.8,21.07
370,Vilhena,90,BR,1554577200,88,-12.74,-60.15,73.4,3.36
371,Maymyo,0,MM,1554579567,82,22.03,96.47,61.0,3.18
372,Srednekolymsk,36,RU,1554579347,88,67.46,153.71,8.08,3.18
373,Hopkinsville,1,US,1554579418,46,36.87,-87.49,75.0,5.82
374,Yar-Sale,68,RU,1554579568,85,66.83,70.83,28.69,23.87
375,Manta,56,RO,1554579568,55,45.1,24.1,50.38,9.22
376,San Cristobal,75,EC,1554579082,46,-0.39,-78.55,71.6,5.82
377,Pangai,20,TO,1554573600,94,-19.8,-174.35,73.4,9.1
378,Nantucket,1,US,1554579267,62,41.28,-70.1,64.0,6.93
379,Nova Olimpia,68,BR,1554579568,77,-14.8,-57.29,74.41,6.76
380,Ostersund,36,SE,1554576600,91,63.18,14.64,32.0,3.36
381,Nong Bua,8,TH,1554579569,83,15.87,100.58,76.84,4.63
382,Boguchany,36,RU,1554579569,75,58.38,97.46,20.23,2.51
383,Pasni,0,PK,1554579569,80,25.26,63.48,79.81,13.58
384,Belmonte,92,PT,1554579072,88,40.36,-7.35,43.0,8.99
385,Dudinka,80,RU,1554579569,93,69.41,86.18,18.16,13.69
386,Makat,64,KZ,1554579569,71,47.65,53.35,49.57,14.47
387,Savannah Bight,12,HN,1554579570,98,16.45,-85.85,79.99,21.18
388,Obidos,75,PT,1554579530,87,39.36,-9.16,54.0,10.29
389,Burns Lake,24,CA,1554579570,55,54.23,-125.76,46.78,5.97
390,Boyolangu,32,ID,1554579570,93,-8.09,111.9,70.63,3.85
391,Altamira,75,BR,1554577200,66,-3.2,-52.21,87.8,8.05
392,Coxim,56,BR,1554579571,76,-18.5,-54.75,77.11,9.33
393,Malinovoye Ozero,0,RU,1554579571,77,51.68,79.77,29.23,6.2
394,Alofi,76,NU,1554577200,94,-19.06,-169.92,78.8,5.82
395,Waingapu,64,ID,1554579571,91,-9.65,120.26,75.67,7.54
396,Mogadishu,0,SO,1554579364,100,2.04,45.34,82.87,13.35
397,Olcea,12,RO,1554577200,81,46.68,21.98,51.8,4.7
398,Beloha,0,MG,1554579571,60,-25.17,45.06,79.45,11.68
399,Lyuban,56,BY,1554579571,38,52.8,28.0,44.89,12.12
400,Pervomayskoye,88,RU,1554579572,91,57.07,86.23,27.7,8.66
401,Tura,92,IN,1554579572,96,25.52,90.21,65.41,3.96
402,Brae,44,GB,1554576600,75,60.4,-1.35,44.6,14.99
403,Dunedin,0,NZ,1554579278,62,-45.87,170.5,50.0,11.99
404,Rome,0,IT,1554579424,71,41.89,12.48,55.0,4.7
405,Orel-Izumrud,90,RU,1554578937,93,43.46,39.92,50.0,4.47
406,Mozarlandia,56,BR,1554579573,74,-14.74,-50.57,82.51,2.95
407,La Ronge,90,CA,1554577200,55,55.1,-105.3,35.6,12.75
408,Margate,0,AU,1554579555,71,-43.03,147.26,50.0,8.05
409,La Palma,20,CO,1554579574,62,5.36,-74.39,80.98,0.94
410,Mikuni,75,JP,1554577200,66,36.22,136.15,48.2,4.7
411,Vestmannaeyjar,75,IS,1554573600,90,63.44,-20.27,41.0,25.28
412,Jaicos,64,BR,1554579574,83,-7.36,-41.14,77.74,8.21
413,Mineros,36,BO,1554577200,34,-17.12,-63.23,78.8,17.22
414,Cururupu,92,BR,1554579574,100,-1.82,-44.87,76.12,3.51
415,Calvia,20,ES,1554579065,67,39.57,2.51,57.2,11.41
416,Bichura,0,RU,1554579575,70,50.59,107.6,10.96,2.39
417,Warrnambool,0,AU,1554579127,95,-38.38,142.48,46.99,1.01
418,Concarneau,92,FR,1554579568,93,47.88,-3.92,48.2,8.05
419,Nacala,80,MZ,1554579575,95,-14.56,40.69,82.33,8.1
420,Sioux Lookout,75,CA,1554577200,48,50.1,-91.92,41.0,2.24
421,Storforshei,88,NO,1554579575,89,66.4,14.52,22.84,1.83
422,Uncia,0,BO,1554579575,17,-18.47,-66.57,56.86,3.51
423,Massaguet,0,TD,1554577200,9,12.48,15.44,98.6,8.05
424,Klyuchi,8,RU,1554579576,73,52.25,79.17,31.39,9.44
425,Ocean City,90,US,1554579311,88,30.44,-86.61,80.6,11.41
426,Antequera,92,PY,1554579576,86,-24.09,-57.2,69.91,6.64
427,Meadow Lake,90,CA,1554577200,65,54.13,-108.44,41.0,18.34
428,Itarema,92,BR,1554579576,100,-2.92,-39.92,75.4,5.41
429,Waverly,1,US,1554579576,77,37.04,-77.1,64.4,5.3
430,Balkhash,0,KZ,1554579577,66,46.84,74.98,38.14,15.14
431,Saint-Joseph,92,FR,1554579483,93,43.56,6.97,50.0,2.24
432,Nikko,8,JP,1554579004,58,36.75,139.62,43.0,1.99
433,Lahaina,20,US,1554579568,65,20.87,-156.68,78.8,4.7
434,Havelock,90,US,1554579337,82,34.88,-76.9,71.6,10.29
435,Bourail,88,NC,1554579578,93,-21.57,165.5,70.09,4.18
436,Quatre Cocos,75,MU,1554579540,74,-20.21,57.76,80.6,11.41
437,Methoni,20,GR,1554579338,87,36.82,21.7,59.0,9.33
438,Kalabo,44,ZM,1554579579,45,-15.0,22.67,80.17,10.78
439,Baherden,92,TM,1554579579,100,38.44,57.43,56.23,7.09
440,Verkhoyansk,12,RU,1554579579,59,67.55,133.39,4.3,2.62
441,Chernyshevskiy,44,RU,1554579579,68,63.01,112.47,18.25,6.87
442,Palenque,20,MX,1554576660,55,17.51,-91.98,91.4,6.42
443,Grand Gaube,75,MU,1554579540,74,-20.01,57.66,80.6,11.41
444,Atar,0,MR,1554573600,28,20.52,-13.05,82.4,13.87
445,Weligama,8,LK,1554579580,100,5.97,80.42,78.64,4.63
446,Coffs Harbour,0,AU,1554579492,88,-30.3,153.13,64.4,4.7
447,Atbasar,0,KZ,1554579580,76,51.81,68.36,29.32,2.95
448,Santa Vitoria do Palmar,76,BR,1554579361,80,-33.52,-53.37,66.94,7.2
449,Chimbote,36,PE,1554579580,80,-9.08,-78.59,72.7,6.76
450,Norilsk,88,RU,1554579516,90,69.35,88.2,18.43,11.34
451,Manokwari,64,ID,1554579580,100,-0.87,134.08,80.62,1.61
452,Swidnik,0,PL,1554579544,61,51.22,22.7,55.0,8.05
453,Erechim,90,BR,1554573600,100,-27.64,-52.27,64.4,9.17
454,Bilibino,0,RU,1554579581,83,68.06,166.44,13.48,3.29
455,Toropets,0,RU,1554579581,83,56.5,31.64,29.77,2.95
456,Vega de Alatorre,56,MX,1554579581,59,20.03,-96.65,85.21,5.64
457,Barmer,0,IN,1554579581,31,25.74,71.4,79.63,9.1
458,Alcudia,20,ES,1554579065,67,39.85,3.12,57.2,11.41
459,Diffa,0,NE,1554579582,24,13.32,12.61,84.04,5.75
460,Baiao,88,BR,1554579582,88,-2.79,-49.67,78.73,2.17
461,Mayo,90,CA,1554577200,54,63.59,-135.9,28.4,10.29
462,Karymskoye,64,RU,1554579582,76,51.62,114.34,25.45,5.08
463,Saint-Ambroise,75,FR,1554579426,81,47.25,-0.65,51.01,13.87
464,Aklavik,20,CA,1554577200,61,68.22,-135.01,12.2,3.36
465,Ouegoa,0,NC,1554579583,86,-20.34,164.44,73.78,7.2
466,Pacific Grove,90,US,1554579314,63,36.62,-121.92,68.0,5.82
467,Ahualulco,5,MX,1554576300,9,22.4,-101.17,82.4,20.8
468,Ponta do Sol,8,BR,1554579583,90,-20.63,-46.0,72.7,1.28
469,Midsalip,76,PH,1554579583,91,8.03,123.32,75.58,3.18
470,Mahebourg,75,MU,1554579540,74,-20.41,57.7,80.6,11.41
471,Tutoia,40,BR,1554577200,78,-2.76,-42.27,82.4,8.05
472,Guilin,90,CN,1554577200,100,25.28,110.29,64.4,2.62
473,Huancabamba,76,PE,1554579584,69,-5.24,-79.45,67.03,1.61
474,Mehamn,64,NO,1554579584,86,71.03,27.85,28.96,11.23
475,Alindao,8,CF,1554579584,62,5.04,21.21,80.26,7.99
476,Cap Malheureux,75,MU,1554579540,74,-19.98,57.61,80.6,11.41
477,Champerico,40,MX,1554577260,32,16.38,-93.6,93.2,6.93
478,Ribeira Brava,20,PT,1554579485,67,32.65,-17.07,62.6,6.93
479,Antofagasta,90,CL,1554577200,77,-23.65,-70.4,64.4,13.87
480,Auki,0,NG,1554579585,37,12.18,6.51,85.48,9.22
481,Iranshahr,0,IR,1554577200,23,27.21,60.69,84.2,6.93
482,Englehart,90,CA,1554577200,60,47.82,-79.87,42.8,8.05
483,Ocos,20,GT,1554577200,43,14.51,-92.19,93.2,9.17
484,Tambovka,0,UA,1554579586,69,46.93,35.45,46.6,11.9
485,Glubokiy,0,RU,1554579586,73,48.52,40.33,37.96,5.64
486,Hibbing,90,US,1554579121,93,47.43,-92.94,50.0,8.05
487,Wake Forest,90,US,1554579581,72,35.98,-78.51,69.01,3.74
488,Tarauaca,88,BR,1554579586,86,-8.16,-70.77,76.84,10.0
489,Ozernovskiy,44,RU,1554579586,83,51.5,156.52,32.92,18.72
490,Sobolevo,68,RU,1554579586,69,54.43,31.9,35.98,7.99
491,Roald,40,NO,1554579305,98,62.58,6.12,41.0,14.99
492,Kikwit,48,CD,1554579587,91,-5.04,18.82,75.67,2.84
493,Djibo,44,BF,1554579587,23,14.1,-1.63,90.25,13.13
494,Newport,90,GB,1554579489,66,51.59,-3.0,51.01,13.87
495,Springbok,64,ZA,1554579587,49,-29.67,17.88,55.96,2.62
496,Bud,75,NO,1554579128,65,62.91,6.91,41.0,12.75
497,Cedar City,1,US,1554579039,50,37.68,-113.06,57.2,9.17
498,Basoko,56,CD,1554579588,91,1.23,23.61,75.67,1.39
499,Oktyabrskiy,20,RU,1554578286,86,55.61,37.97,39.0,2.24
500,Ayan,24,TR,1554579588,70,40.67,33.6,35.08,2.39
501,Iqaluit,90,CA,1554578525,67,63.75,-68.52,23.0,5.82
502,Araouane,0,ML,1554579589,18,18.9,-3.53,76.57,10.67
503,Cristalina,36,BR,1554579349,80,-16.77,-47.61,80.26,4.18
504,Roanoke Rapids,90,US,1554579576,93,36.46,-77.65,66.0,4.7
505,Kiruna,80,SE,1554576600,58,67.86,20.23,24.8,2.39
506,Brown Deer,90,US,1554579543,67,43.16,-87.96,60.01,9.17
507,Sault Sainte Marie,90,CA,1554577200,75,46.49,-84.36,44.6,2.73
508,Pyay,0,MM,1554579589,72,18.82,95.22,75.76,2.95
509,Zhongshu,0,CN,1554579590,83,24.52,103.77,44.44,2.39
510,Aranos,32,NA,1554579590,28,-24.14,19.11,67.48,9.22
511,Wanlaweyn,0,SO,1554579590,79,2.62,44.89,78.91,9.33
512,Sechura,8,PE,1554579590,67,-5.56,-80.82,80.26,11.23
513,Emerald,0,AU,1554579478,93,-23.53,148.16,64.4,3.36
514,Turukhansk,68,RU,1554579590,84,65.8,87.96,18.07,11.01
515,Cornwall,75,CA,1554579243,75,45.02,-74.73,51.01,10.29
516,Chandbali,36,IN,1554579591,100,20.77,86.74,78.28,10.45
517,Sur,8,OM,1554579326,81,22.57,59.53,81.16,4.18
518,Douentza,32,ML,1554579591,25,15.01,-2.95,85.03,9.55
519,Takoradi,8,GH,1554579591,94,4.89,-1.75,83.23,10.33
520,Wladyslawowo,0,PL,1554579565,77,54.79,18.4,48.2,5.82
521,Isangel,0,VU,1554579591,100,-19.55,169.27,77.11,15.82
522,Atambua,0,ID,1554579591,100,-9.11,124.89,75.76,1.72
523,Santa Cruz Cabralia,20,BR,1554577200,70,-16.28,-39.02,86.0,14.99
524,Am Timan,0,TD,1554579592,18,11.04,20.28,79.18,8.43
525,Saint-Doulchard,0,FR,1554579541,62,47.1,2.37,53.6,9.17
526,Conceicao do Mato Dentro,24,BR,1554579592,72,-19.04,-43.42,78.64,2.62
527,Paita,0,PE,1554577200,290,-5.09,-81.11,62.6,12.75
528,Yizheng,0,CN,1554579592,82,24.67,103.43,44.53,2.39
529,Rosarito,75,CO,1554577200,82,4.91,-75.23,80.6,4.7
530,Berlin,0,DE,1554579448,41,52.52,13.39,63.0,6.93
531,Troitsko-Pechorsk,0,RU,1554579593,73,62.71,56.19,21.85,5.64
532,Bapatla,36,IN,1554579424,91,15.9,80.47,76.3,6.98
533,Vostok,80,RU,1554579593,95,46.45,135.83,25.0,1.39
534,Peterhead,0,AU,1554579559,81,-34.83,138.5,55.0,6.93
535,Chara,75,GR,1554576600,66,39.42,22.43,55.4,5.82
536,Yarim,0,YE,1554579593,81,14.3,44.38,47.68,2.06
537,Topolobampo,5,MX,1554579497,32,25.6,-109.05,80.6,5.82
538,Malaia,0,RO,1554577200,64,45.35,24.04,57.2,11.41
539,Kodinsk,20,RU,1554579594,75,58.6,99.18,19.15,3.74
540,Berlevag,24,NO,1554579594,100,70.86,29.09,29.14,10.78
541,Mecca,12,SA,1554579462,48,21.43,39.83,66.85,2.51
542,Lata,24,IN,1554579594,90,30.78,78.62,45.43,2.39
543,Chimoio,40,MZ,1554573600,83,-19.11,33.48,71.6,6.93
544,Maumere,12,ID,1554579595,100,-8.63,122.22,80.53,2.39
545,Yakeshi,48,CN,1554579595,92,49.28,120.73,20.86,2.95
546,Abu Kamal,92,SY,1554579595,89,34.45,40.92,55.24,6.64
547,Asyut,0,EG,1554573600,33,27.18,31.19,71.6,13.87
548,Yabrud,40,SY,1554579093,54,33.97,36.66,59.0,9.17
549,Tocopilla,0,CL,1554579334,81,-22.09,-70.2,69.46,5.3
550,Kavieng,92,PG,1554579595,100,-2.57,150.8,81.52,5.41
551,Quimper,92,FR,1554579198,93,48.0,-4.1,50.0,8.05
552,Paraiso,5,MX,1554579015,10,24.01,-104.61,72.0,14.99
553,Langsa,32,ID,1554579596,86,4.47,97.97,70.09,2.28
554,Kichera,0,RU,1554579596,70,55.93,110.1,4.66,4.18
555,Sao Fidelis,20,BR,1554577200,59,-21.65,-41.75,89.6,14.99
556,Wewak,56,PG,1554579596,100,-3.55,143.63,74.86,2.39
557,Poronaysk,88,RU,1554579596,81,49.22,143.1,30.31,7.99
558,Pili,0,PH,1554579597,90,13.56,123.27,73.69,3.96
